City_ID,City,Lat,Lng,Max Temp,Humidity,Cloudiness,Wind Speed,Country,Date
0,constitucion,-35.3333,-72.4167,66.16,67,18,13.96,CL,2023-02-08 22:59:53
1,busselton,-33.65,115.3333,60.66,83,2,12.12,AU,2023-02-08 22:59:54
2,ushuaia,-54.8,-68.3,58.62,72,100,2.3,AR,2023-02-08 22:59:54
3,mae sai,20.4335,99.8762,55.42,37,0,2.68,TH,2023-02-08 22:59:54
4,anadyr,64.75,177.4833,-30.5,68,0,11.18,RU,2023-02-08 22:59:54
5,atuona,-9.8,-139.0333,78.89,81,17,18.88,PF,2023-02-08 22:59:55
6,muli,2.9167,73.5667,81.01,71,91,7.09,MV,2023-02-08 22:59:55
7,clyde river,70.4692,-68.5914,-28.97,68,0,5.75,CA,2023-02-08 22:59:56
8,qatana,33.4354,36.0815,30.63,73,2,7.27,SY,2023-02-08 22:59:56
9,bredasdorp,-34.5322,20.0403,66.61,81,3,13.89,ZA,2023-02-08 22:59:56
10,norman wells,65.282,-126.8329,-14.76,76,75,0.0,CA,2023-02-08 22:59:57
11,bathsheba,13.2167,-59.5167,79.41,73,40,17.27,BB,2023-02-08 22:59:57
12,albany,42.6001,-73.9662,39.63,63,9,6.76,US,2023-02-08 22:58:30
13,rikitea,-23.1203,-134.9692,79.79,73,21,12.53,PF,2023-02-08 22:59:57
14,fortuna,40.5982,-124.1573,54.36,81,0,9.22,US,2023-02-08 22:59:58
15,port alfred,-33.5906,26.891,67.17,96,100,3.09,ZA,2023-02-08 22:59:58
16,necochea,-38.5473,-58.7368,65.7,81,0,7.29,AR,2023-02-08 22:59:58
17,nicoya,10.1483,-85.452,86.52,49,35,12.82,CR,2023-02-08 22:59:59
18,tamandare,-8.7597,-35.1047,78.13,78,89,6.38,BR,2023-02-08 22:59:59
19,punta arenas,-53.15,-70.9167,57.31,67,75,24.16,CL,2023-02-08 22:57:06
20,qaanaaq,77.484,-69.3632,-26.32,68,17,6.35,GL,2023-02-08 22:59:59
21,hobart,-42.8794,147.3294,63.27,70,75,5.75,AU,2023-02-08 22:57:55
22,taoudenni,22.6783,-3.9836,69.39,16,98,9.78,ML,2023-02-08 23:00:00
23,kloulklubed,7.0419,134.2556,75.7,73,100,10.89,PW,2023-02-08 23:00:00
24,presidencia roque saenz pena,-26.7852,-60.4388,94.75,23,70,2.62,AR,2023-02-08 23:00:01
25,te anau,-45.4167,167.7167,54.57,53,69,4.41,NZ,2023-02-08 23:00:01
26,upernavik,72.7868,-56.1549,-27.17,76,11,6.33,GL,2023-02-08 23:00:03
27,bontang,0.1333,117.5,75.99,84,95,3.58,ID,2023-02-08 23:00:10
28,san jeronimo,-11.9472,-75.2829,59.27,65,58,4.56,PE,2023-02-08 23:00:14
29,olafsvik,64.8945,-23.7142,25.74,63,100,33.04,IS,2023-02-08 22:57:22
30,illela,13.7292,5.2975,74.52,14,100,11.03,NG,2023-02-08 23:00:42
31,durazno,-33.4131,-56.5006,81.68,42,93,25.34,UY,2023-02-08 23:00:45
32,saskylakh,71.9167,114.0833,-40.81,100,83,6.06,RU,2023-02-08 23:00:46
33,vanimo,-2.6741,141.3028,77.86,91,100,18.12,PG,2023-02-08 23:00:47
34,san patricio,28.017,-97.5169,64.26,63,100,11.95,US,2023-02-08 23:00:48
35,cape town,-33.9258,18.4232,71.91,67,0,17.0,ZA,2023-02-08 23:00:01
36,bluff,-46.6,168.3333,52.81,58,70,20.0,NZ,2023-02-08 23:00:49
37,mar del plata,-38.0023,-57.5575,77.02,70,0,9.22,AR,2023-02-08 22:58:45
38,cabo san lucas,22.8909,-109.9124,82.62,34,2,10.0,MX,2023-02-08 22:56:20
39,jamestown,42.097,-79.2353,40.64,65,0,5.99,US,2023-02-08 23:00:49
40,cockburn town,21.4612,-71.1419,76.96,69,40,17.27,TC,2023-02-08 23:00:50
41,new norfolk,-42.7826,147.0587,62.92,60,100,2.13,AU,2023-02-08 23:00:50
42,airai,-8.9266,125.4092,62.08,92,99,2.77,TL,2023-02-08 23:00:51
43,kahului,20.8947,-156.47,77.97,67,37,11.99,US,2023-02-08 23:00:52
44,puerto ayora,-0.7393,-90.3518,85.96,89,97,8.99,EC,2023-02-08 23:00:53
45,biak,-0.9131,122.8766,76.35,73,100,2.68,ID,2023-02-08 23:00:53
46,longyearbyen,78.2186,15.6401,24.64,86,100,16.11,SJ,2023-02-08 23:00:54
47,linxia,35.6003,103.2064,20.32,92,63,0.81,CN,2023-02-08 23:00:54
48,saint-philippe,-21.3585,55.7679,74.79,85,82,11.25,RE,2023-02-08 23:00:54
49,panaba,21.2833,-88.2667,85.69,43,0,14.09,MX,2023-02-08 23:00:55
50,hermanus,-34.4187,19.2345,68.81,79,0,14.83,ZA,2023-02-08 23:00:55
51,dalvik,65.9702,-18.5286,22.93,81,87,9.66,IS,2023-02-08 22:57:22
52,sao filipe,14.8961,-24.4956,69.84,72,29,11.88,CV,2023-02-08 23:00:56
53,biu,10.6129,12.1946,71.04,23,85,9.22,NG,2023-02-08 23:00:56
54,cayenne,4.9333,-52.3333,77.04,94,75,9.22,GF,2023-02-08 23:00:15
55,avarua,-21.2078,-159.775,84.25,74,42,12.66,CK,2023-02-08 23:00:57
56,san cristobal,7.7669,-72.225,73.58,64,50,0.43,VE,2023-02-08 23:00:57
57,mataura,-46.1927,168.8643,52.48,85,95,8.32,NZ,2023-02-08 23:00:58
58,la ronge,55.1001,-105.2842,21.45,53,20,14.97,CA,2023-02-08 23:00:59
59,kiunga,-6.1219,141.2906,73.4,99,100,4.32,PG,2023-02-08 23:00:59
60,mahebourg,-20.4081,57.7,79.25,83,75,8.05,MU,2023-02-08 23:01:00
61,nikolskoye,59.7035,30.7861,35.49,95,100,8.34,RU,2023-02-08 23:01:00
62,ust-nera,64.5667,143.2,-44.25,98,83,0.96,RU,2023-02-08 23:01:01
63,port hedland,-20.3167,118.5667,82.45,89,2,3.44,AU,2023-02-08 23:01:03
64,villa del rosario,7.8339,-72.4742,79.18,69,40,11.5,CO,2023-02-08 23:01:05
65,vaini,-21.2,-175.2,84.36,79,75,9.22,TO,2023-02-08 23:01:07
66,arraial do cabo,-22.9661,-42.0278,78.76,83,75,3.44,BR,2023-02-08 23:01:08
67,yellowknife,62.456,-114.3525,-6.45,84,20,5.75,CA,2023-02-08 23:00:26
68,buraydah,26.326,43.975,52.25,38,100,8.3,SA,2023-02-08 23:01:10
69,arroyo,41.6096,-4.7969,38.59,84,0,10.36,ES,2023-02-08 23:01:11
70,quatre cocos,-20.2078,57.7625,79.09,82,25,11.3,MU,2023-02-08 23:01:12
71,kirakira,-10.4544,161.9205,82.76,80,97,9.89,SB,2023-02-08 23:01:15
72,vila,42.0304,-8.1588,41.88,76,0,4.38,PT,2023-02-08 23:01:16
73,faanui,-16.4833,-151.75,80.74,73,15,10.31,PF,2023-02-08 23:01:20
74,wuning,29.2589,120.2311,45.57,96,100,2.91,CN,2023-02-08 23:01:21
75,haapiti,-17.5667,-149.8667,85.73,72,11,7.02,PF,2023-02-08 23:01:21
76,port elizabeth,-33.918,25.5701,70.32,89,75,5.99,ZA,2023-02-08 23:00:27
77,fayaoue,-20.65,166.5333,81.54,79,100,9.64,NC,2023-02-08 23:01:24
78,tiksi,71.6872,128.8694,-40.31,98,56,5.61,RU,2023-02-08 23:01:25
79,waitati,-45.75,170.5667,52.16,72,43,12.73,NZ,2023-02-08 23:01:27
80,tuatapere,-46.1333,167.6833,51.67,73,92,10.45,NZ,2023-02-08 23:01:28
81,roebourne,-20.7833,117.1333,85.71,65,2,4.21,AU,2023-02-08 23:01:29
82,oro valley,32.3909,-110.9665,66.09,24,53,8.99,US,2023-02-08 23:01:30
83,kurilsk,45.2333,147.8833,19.62,84,92,12.8,RU,2023-02-08 23:01:31
84,vrangel,42.7297,133.0839,15.53,77,4,6.85,RU,2023-02-08 23:01:34
85,castro,-24.7911,-50.0119,68.81,65,30,4.07,BR,2023-02-08 23:01:36
86,barrow,71.2906,-156.7887,-7.58,77,100,4.61,US,2023-02-08 23:01:37
87,georgetown,5.4112,100.3354,78.73,94,20,2.3,MY,2023-02-08 23:00:35
88,hithadhoo,-0.6,73.0833,81.07,73,69,9.1,MV,2023-02-08 23:01:39
89,victoria,22.2855,114.1577,66.94,90,98,13.0,HK,2023-02-08 23:00:31
90,isangel,-19.55,169.2667,80.71,89,100,11.5,VU,2023-02-08 23:01:39
91,puerto baquerizo moreno,-0.9,-89.6,79.79,89,75,0.0,EC,2023-02-08 23:01:40
92,grand gaube,-20.0064,57.6608,79.38,78,14,5.01,MU,2023-02-08 23:01:40
93,neuquen,-38.9516,-68.0591,94.89,26,0,5.75,AR,2023-02-08 23:00:56
94,japura,-0.3167,102.35,72.97,99,92,2.3,ID,2023-02-08 23:01:41
95,westport,41.1415,-73.3579,49.75,55,6,1.99,US,2023-02-08 23:00:32
96,bengkulu,-3.8004,102.2655,74.34,82,94,3.94,ID,2023-02-08 23:01:41
97,grindavik,63.8424,-22.4338,28.35,50,40,32.21,IS,2023-02-08 23:01:42
98,severo-kurilsk,50.6789,156.125,22.98,62,95,20.13,RU,2023-02-08 23:01:42
99,laguna,38.421,-121.4238,65.23,51,0,5.75,US,2023-02-08 23:01:42
100,palu,-0.8917,119.8707,75.52,86,100,2.33,ID,2023-02-08 23:01:43
101,namibe,-15.1961,12.1522,70.54,73,100,10.51,AO,2023-02-08 23:01:43
102,kondinskoye,59.6481,67.41,10.98,97,100,6.46,RU,2023-02-08 23:01:44
103,ketchikan,55.3422,-131.6461,40.98,87,100,11.5,US,2023-02-08 23:01:44
104,port keats,-14.25,129.55,85.51,76,100,10.96,AU,2023-02-08 23:01:45
105,tirumullaivasal,11.2333,79.8333,73.08,79,94,3.69,IN,2023-02-08 23:01:45
106,adrar,20.5022,-10.0711,67.3,16,100,9.04,MR,2023-02-08 23:01:46
107,kintampo,8.0563,-1.7306,82.6,48,84,5.97,GH,2023-02-08 23:01:46
108,montepuez,-13.1256,38.9997,69.19,98,100,3.36,MZ,2023-02-08 23:01:46
109,rawson,-43.3002,-65.1023,77.25,35,78,22.39,AR,2023-02-08 23:01:47
110,da nang,16.0678,108.2208,75.18,94,75,5.75,VN,2023-02-08 22:57:31
111,iberia,29.9502,-91.7507,71.56,94,100,13.8,US,2023-02-08 23:01:47
112,east london,-33.0153,27.9116,68.58,89,100,1.72,ZA,2023-02-08 23:01:48
113,la asuncion,11.0333,-63.8628,75.65,87,4,13.44,VE,2023-02-08 23:01:48
114,pevek,69.7008,170.3133,-30.6,100,100,7.63,RU,2023-02-08 23:01:48
115,artyshta,54.1222,86.2909,0.45,99,97,0.89,RU,2023-02-08 23:01:49
116,pangai,-19.8,-174.35,80.71,83,75,0.0,TO,2023-02-08 23:01:49
117,batagay-alyta,67.8006,130.4114,-45.72,99,59,3.44,RU,2023-02-08 23:01:49
118,upata,8.0086,-62.3989,75.2,69,96,5.75,VE,2023-02-08 23:01:50
119,kaeo,-35.1,173.7833,69.39,64,23,5.79,NZ,2023-02-08 23:01:50
120,chokurdakh,70.6333,147.9167,-28.26,97,100,4.68,RU,2023-02-08 23:01:51
121,damietta,31.4165,31.8133,49.89,56,21,12.26,EG,2023-02-08 22:58:44
122,uyskoye,54.3775,60.0047,14.45,95,100,3.62,RU,2023-02-08 23:01:51
123,sao gabriel da cachoeira,-0.1303,-67.0892,75.04,95,67,1.77,BR,2023-02-08 23:00:54
124,ellisras,-23.6649,27.7443,73.56,71,96,3.22,ZA,2023-02-08 23:01:51
125,hasaki,35.7333,140.8333,39.6,48,26,20.89,JP,2023-02-08 23:01:52
126,yar-sale,66.8333,70.8333,20.52,95,75,8.16,RU,2023-02-08 23:01:52
127,saint-pierre,-21.3393,55.4781,74.88,64,0,4.61,RE,2023-02-08 22:59:32
128,kavieng,-2.5744,150.7967,82.11,76,95,6.82,PG,2023-02-08 23:01:53
129,kapaa,22.0752,-159.319,78.1,64,75,8.01,US,2023-02-08 23:01:53
130,carnarvon,-24.8667,113.6333,78.78,72,43,16.73,AU,2023-02-08 23:01:53
131,yulara,-25.2406,130.9889,88.3,26,5,11.61,AU,2023-02-08 23:01:54
132,srednekolymsk,67.45,153.6833,-28.3,97,100,6.69,RU,2023-02-08 23:01:54
133,chuy,-33.6971,-53.4616,74.57,79,100,9.46,UY,2023-02-08 23:01:55
134,tautira,-17.7333,-149.15,79.03,77,30,7.7,PF,2023-02-08 23:01:55
135,geraldton,-28.7667,114.6,66.61,88,0,10.36,AU,2023-02-08 23:01:55
136,viedma,-40.8135,-62.9967,73.87,39,50,11.43,AR,2023-02-08 23:01:03
137,mehamn,71.0357,27.8492,40.95,65,0,40.29,NO,2023-02-08 23:01:56
138,shimoda,34.6667,138.95,44.1,60,93,14.32,JP,2023-02-08 23:01:56
139,ariquemes,-9.9133,-63.0408,75.22,94,64,1.21,BR,2023-02-08 23:01:56
140,assiniboia,49.6334,-105.9845,30.02,93,62,18.41,CA,2023-02-08 23:01:57
141,alofi,-19.0595,-169.9187,85.89,66,75,9.22,NU,2023-02-08 23:01:57
142,egvekinot,66.3167,-179.1667,-14.42,95,100,4.61,RU,2023-02-08 23:01:57
143,vardo,70.3705,31.1107,37.38,75,100,43.73,NO,2023-02-08 23:01:58
144,kurashiki,34.5833,133.7667,36.64,78,36,4.79,JP,2023-02-08 23:01:58
145,itoman,26.1247,127.6694,68.02,74,40,10.36,JP,2023-02-08 23:01:58
146,pavlovskiy,57.8424,54.8436,9.28,100,96,3.78,RU,2023-02-08 23:01:59
147,ambilobe,-13.2,49.05,72.79,96,100,1.21,MG,2023-02-08 23:01:59
148,okitipupa,6.5047,4.7839,76.84,91,92,2.55,NG,2023-02-08 23:01:59
149,tigil,57.8,158.6667,-10.03,97,100,2.17,RU,2023-02-08 23:02:00
150,gravdal,68.1214,13.5031,40.89,70,75,16.11,NO,2023-02-08 23:02:00
151,maumere,-8.6199,122.2111,79.57,79,96,0.54,ID,2023-02-08 23:02:00
152,port augusta,-32.5,137.7667,88.14,15,0,2.66,AU,2023-02-08 23:02:01
153,chengde,40.9725,117.9361,26.8,35,100,2.53,CN,2023-02-08 23:02:00
154,lanxi,29.2195,119.477,45.79,96,100,2.1,CN,2023-02-08 23:02:01
155,vacaria,-28.5122,-50.9339,73.67,69,81,9.37,BR,2023-02-08 23:02:02
156,broome,42.2506,-75.833,41.38,67,0,3.44,US,2023-02-08 23:02:02
157,esil,51.9556,66.4042,-21.59,100,99,0.4,KZ,2023-02-08 23:02:03
158,suntar,62.1444,117.6319,-53.64,100,67,1.16,RU,2023-02-08 23:02:03
159,manggar,-2.8833,108.2667,77.38,88,97,6.44,ID,2023-02-08 23:02:03
160,seymchan,62.8833,152.4333,-38.16,99,99,1.86,RU,2023-02-08 23:02:04
161,ouadda,8.0777,22.4007,69.64,16,13,7.38,CF,2023-02-08 23:02:04
162,tasiilaq,65.6145,-37.6368,5.16,52,1,9.53,GL,2023-02-08 23:02:05
163,kalmunai,7.4167,81.8167,75.24,87,99,5.95,LK,2023-02-08 23:02:05
164,prince rupert,54.3161,-130.3201,42.49,74,75,25.32,CA,2023-02-08 23:02:05
165,orlik,52.5178,99.825,-11.43,96,99,2.08,RU,2023-02-08 23:02:06
166,oranjemund,-28.55,16.4333,63.0,96,27,2.68,NA,2023-02-08 23:02:06
167,inuvik,68.3499,-133.7218,-15.59,72,100,0.0,CA,2023-02-08 22:57:14
168,chicama,-7.8447,-79.1469,75.74,67,31,8.08,PE,2023-02-08 23:02:07
169,sinnamary,5.3833,-52.95,76.26,89,100,11.77,GF,2023-02-08 23:01:37
170,ouallam,14.3188,2.0866,78.48,12,59,9.84,NE,2023-02-08 23:02:07
171,rosita,13.9268,-84.4032,79.7,65,94,3.96,NI,2023-02-08 23:02:08
172,san andres,12.5847,-81.7006,82.42,74,40,11.5,CO,2023-02-08 23:00:44
173,celestun,20.8667,-90.4,82.38,66,41,7.16,MX,2023-02-08 23:02:08
174,margate,51.3813,1.3862,39.74,62,18,11.39,GB,2023-02-08 22:59:35
175,synya,65.3718,58.0387,24.82,88,99,10.07,RU,2023-02-08 23:02:09
176,naze,28.3667,129.4833,61.72,70,100,15.7,JP,2023-02-08 23:02:09
177,adeje,28.1227,-16.726,60.1,64,75,5.75,ES,2023-02-08 23:02:10
178,ada,43.4166,-116.1262,43.41,44,0,12.66,US,2023-02-08 23:02:10
179,priiskovyy,51.9333,116.6333,-15.09,96,69,2.19,RU,2023-02-08 23:02:11
180,carutapera,-1.195,-46.02,76.44,89,99,5.91,BR,2023-02-08 23:02:11
181,pacific grove,36.6177,-121.9166,66.65,71,0,5.75,US,2023-02-08 23:00:27
182,hilo,19.7297,-155.09,77.29,77,100,3.44,US,2023-02-08 22:58:53
183,plettenberg bay,-34.0527,23.3716,65.12,85,87,6.93,ZA,2023-02-08 23:02:11
184,cidreira,-30.1811,-50.2056,76.55,82,1,18.45,BR,2023-02-08 23:02:12
185,kununurra,-15.7667,128.7333,84.18,79,75,5.75,AU,2023-02-08 22:57:37
186,loandjili,-4.7561,11.8578,78.96,87,70,5.77,CG,2023-02-08 23:02:12
187,nanortalik,60.1432,-45.2371,28.4,84,100,3.89,GL,2023-02-08 23:02:13
188,qorveh,35.1664,47.8045,22.53,93,100,1.79,IR,2023-02-08 23:02:13
189,saldanha,-33.0117,17.9442,68.76,68,47,8.39,ZA,2023-02-08 23:02:14
190,trat,12.5,102.5,79.88,94,39,1.83,TH,2023-02-08 23:02:14
191,mansehra,34.3333,73.2,44.4,66,80,7.29,PK,2023-02-08 23:02:14
192,phaltan,17.9833,74.4333,68.11,34,30,3.65,IN,2023-02-08 23:02:15
193,canete,-37.8,-73.4,65.88,72,11,5.48,CL,2023-02-08 23:02:15
194,omsukchan,62.5333,155.8,-38.47,99,62,3.89,RU,2023-02-08 23:02:16
195,iqaluit,63.7506,-68.5145,-25.87,68,40,26.46,CA,2023-02-08 23:02:03
196,cherskiy,68.75,161.3,-28.48,98,100,8.12,RU,2023-02-08 23:02:16
197,itarema,-2.9248,-39.9167,79.07,80,80,11.83,BR,2023-02-08 23:02:16
198,namatanai,-3.6667,152.4333,81.3,76,100,1.95,PG,2023-02-08 23:02:17
199,cabra,37.4725,-4.4421,45.66,80,67,2.91,ES,2023-02-08 23:02:17
200,sosnovo-ozerskoye,52.5249,111.5418,-13.94,100,98,2.44,RU,2023-02-08 23:02:18
201,tuktoyaktuk,69.4541,-133.0374,-32.8,68,20,4.61,CA,2023-02-08 23:02:19
202,gat,31.61,34.7642,46.4,100,56,5.19,IL,2023-02-08 23:02:19
203,armacao de pera,37.1026,-8.357,54.09,84,20,7.96,PT,2023-02-08 23:02:19
204,tres arroyos,-38.3739,-60.2798,69.94,50,0,6.15,AR,2023-02-08 23:02:20
205,okhotsk,59.3833,143.3,-21.51,84,37,12.21,RU,2023-02-08 23:02:20
206,rundu,-17.9333,19.7667,66.43,96,98,5.93,NA,2023-02-08 23:02:21
207,pisco,-13.7,-76.2167,78.85,69,0,25.32,PE,2023-02-08 23:02:21
208,sabha,27.0377,14.4283,58.82,19,18,14.0,LY,2023-02-08 23:02:21
209,katobu,-4.9408,122.5276,75.6,92,100,1.83,ID,2023-02-08 23:02:22
210,dombarovskiy,50.7587,59.5386,-10.16,100,95,5.26,RU,2023-02-08 23:02:22
211,kenai,60.5544,-151.2583,26.69,79,100,3.44,US,2023-02-08 23:02:23
212,mahajanga,-15.7167,46.3167,75.22,94,40,6.91,MG,2023-02-08 23:02:23
213,beyneu,45.3167,55.2,17.56,71,6,12.55,KZ,2023-02-08 23:02:23
214,sola,-13.8833,167.55,81.27,83,75,2.3,VU,2023-02-08 23:01:47
215,monywa,22.1167,95.1333,62.47,38,2,6.46,MM,2023-02-08 23:02:24
216,svetlogorsk,52.6333,29.7333,19.53,89,98,6.04,BY,2023-02-08 23:02:24
217,akureyri,65.6835,-18.0878,22.93,63,20,12.66,IS,2023-02-08 23:02:25
218,kijang,35.2442,129.2139,33.53,53,83,7.94,KR,2023-02-08 23:02:25
219,pringsewu,-5.3582,104.9744,71.11,89,93,2.39,ID,2023-02-08 23:02:25
220,rio grande,-32.035,-52.0986,82.51,82,44,17.65,BR,2023-02-08 23:02:26
221,ribeira grande,38.5167,-28.7,55.78,73,66,7.0,PT,2023-02-08 23:02:26
222,hanzhong,33.0728,107.0303,41.85,90,100,1.54,CN,2023-02-08 23:02:27
223,nouakchott,18.0858,-15.9785,71.53,33,100,12.62,MR,2023-02-08 23:02:27
224,chiquilistlan,20.2,-103.8167,76.15,23,32,8.01,MX,2023-02-08 23:02:28
225,okha,53.5739,142.9478,-22.99,96,99,12.17,RU,2023-02-08 23:02:28
226,khandagayty,50.7333,92.05,-11.27,97,99,4.74,RU,2023-02-08 23:02:28
227,itaqui,-29.1253,-56.5531,88.2,32,67,19.98,BR,2023-02-08 23:02:29
228,caravelas,-17.7125,-39.2481,77.9,80,24,8.39,BR,2023-02-08 23:02:29
229,lompoc,34.6391,-120.4579,74.79,47,1,7.72,US,2023-02-08 23:02:29
230,two hills,53.7169,-111.7518,30.43,63,81,8.05,CA,2023-02-08 23:02:30
231,talnakh,69.4865,88.3972,-7.8,96,100,9.06,RU,2023-02-08 23:02:30
232,ambon,-3.6954,128.1814,77.14,88,40,6.91,ID,2023-02-08 23:02:31
233,vagur,61.4732,-6.8119,36.59,78,98,39.91,FO,2023-02-08 23:02:31
234,maykor,59.0059,55.88,12.07,98,91,6.11,RU,2023-02-08 23:02:31
235,hambantota,6.1241,81.1185,74.79,79,97,10.76,LK,2023-02-08 23:02:32
236,mount isa,-20.7333,139.5,78.57,89,40,4.61,AU,2023-02-08 23:02:32
237,coihaique,-45.5752,-72.0662,68.61,70,88,8.23,CL,2023-02-08 23:02:33
238,lasa,46.6166,10.7002,23.02,79,34,2.04,IT,2023-02-08 23:02:33
239,campbeltown,55.4258,-5.6076,42.82,81,40,23.02,GB,2023-02-08 23:02:34
240,sao joao da barra,-21.6403,-41.0511,78.89,93,100,7.2,BR,2023-02-08 23:02:34
241,karratha,-20.7377,116.8463,85.46,67,7,4.23,AU,2023-02-08 23:02:34
242,esperance,-33.8667,121.9,66.18,72,91,14.23,AU,2023-02-08 23:02:34
243,deer lake,49.1667,-57.4316,21.06,86,100,2.3,CA,2023-02-08 23:00:28
244,kismayo,-0.3582,42.5454,76.71,84,5,15.21,SO,2023-02-08 23:02:35
245,talcahuano,-36.7167,-73.1167,69.48,64,4,6.91,CL,2023-02-08 23:02:35
246,novominskaya,46.3163,38.9586,19.76,86,16,12.17,RU,2023-02-08 23:02:36
247,kuzovatovo,53.5468,47.6866,16.7,93,100,8.1,RU,2023-02-08 23:02:36
248,tiarei,-17.5333,-149.3333,86.02,76,32,6.42,PF,2023-02-08 23:02:37
249,butaritari,3.0707,172.7902,80.94,82,96,21.21,KI,2023-02-08 23:02:37
250,belmonte,-15.8631,-38.8828,78.44,78,31,9.08,BR,2023-02-08 23:02:37
251,tessalit,20.1986,1.0114,69.76,19,3,11.1,ML,2023-02-08 23:02:38
252,kaitangata,-46.2817,169.8464,52.12,72,70,13.49,NZ,2023-02-08 23:02:38
253,rafaela,-31.2503,-61.4867,91.8,26,14,11.65,AR,2023-02-08 23:02:38
254,lagoa,39.05,-27.9833,56.14,64,81,12.77,PT,2023-02-08 23:02:39
255,rach gia,10.0167,105.0833,74.57,89,33,8.93,VN,2023-02-08 23:02:39
256,provideniya,64.3833,-173.3,-3.89,59,100,8.95,RU,2023-02-08 23:02:39
257,rio gallegos,-51.6226,-69.2181,77.05,29,75,31.07,AR,2023-02-08 23:01:02
258,salisbury,51.0693,-1.7957,35.46,96,53,4.61,GB,2023-02-08 23:00:22
259,broken hill,-31.95,141.4333,83.55,15,0,3.87,AU,2023-02-08 23:02:40
260,ahipara,-35.1667,173.1667,69.67,61,17,10.78,NZ,2023-02-08 23:02:40
261,dawson creek,55.7666,-120.2362,37.04,52,20,10.36,CA,2023-02-08 23:02:40
262,never,46.9896,3.159,28.15,79,0,3.89,FR,2023-02-08 23:02:41
263,palmer,42.1584,-72.3287,42.85,57,4,6.4,US,2023-02-08 23:02:41
264,havre,49.5833,0.3333,34.2,74,0,0.0,FR,2023-02-08 23:02:41
265,catuday,16.2923,119.8062,74.89,70,38,12.24,PH,2023-02-08 23:02:42
266,pilar,-9.5972,-35.9567,76.93,79,100,5.82,BR,2023-02-08 22:59:34
267,troy,42.6056,-83.1499,43.68,72,0,3.44,US,2023-02-08 22:58:52
268,caernarfon,53.1413,-4.2702,49.62,45,100,16.11,GB,2023-02-08 23:01:19
269,calama,-22.4667,-68.9333,73.89,35,75,24.16,CL,2023-02-08 23:02:42
270,burgeo,47.6167,-57.6152,24.78,87,96,11.95,CA,2023-02-08 23:00:17
271,mezen,65.8522,44.24,26.11,78,77,14.09,RU,2023-02-08 23:02:43
272,cap malheureux,-19.9842,57.6142,79.47,78,15,5.01,MU,2023-02-08 23:02:43
273,sitka,57.0531,-135.33,38.73,66,96,4.23,US,2023-02-08 23:02:43
274,hoganas,56.1997,12.558,34.2,69,96,11.01,SE,2023-02-08 23:02:44
275,qui nhon,13.7667,109.2333,71.87,92,87,4.88,VN,2023-02-08 23:02:44
276,port-gentil,-0.7193,8.7815,82.36,89,40,5.75,GA,2023-02-08 23:02:44
277,mandalgovi,45.7625,106.2708,8.26,94,87,3.22,MN,2023-02-08 23:02:45
278,tommot,58.9564,126.2925,-20.54,99,100,0.96,RU,2023-02-08 23:02:45
279,solnechnyy,50.7214,136.6319,-18.94,97,85,3.04,RU,2023-02-08 23:02:45
280,tyumentsevo,53.3224,81.498,-15.43,100,100,1.05,RU,2023-02-08 23:02:46
281,serebryansk,49.6925,83.2892,16.43,94,100,0.6,KZ,2023-02-08 23:02:46
282,bethel,41.3712,-73.414,46.76,60,0,4.61,US,2023-02-08 23:02:46
283,scarborough,54.2797,-0.4044,40.66,75,100,13.0,GB,2023-02-08 22:59:26
284,virginia beach,36.8529,-75.978,61.02,60,40,5.75,US,2023-02-08 23:00:25
285,nanton,50.3501,-113.7687,35.65,57,58,2.86,CA,2023-02-08 23:01:04
286,thompson,55.7435,-97.8558,17.76,79,100,9.22,CA,2023-02-08 23:02:47
287,bambous virieux,-20.3428,57.7575,79.21,83,75,8.05,MU,2023-02-08 23:02:47
288,vao,-22.6667,167.4833,79.0,82,100,20.4,NC,2023-02-08 23:02:48
289,batsfjord,70.6345,29.7185,39.13,75,20,43.73,NO,2023-02-08 23:02:48
290,cartagena,10.3997,-75.5144,85.62,62,20,11.5,CO,2023-02-08 23:02:48
291,kuala terengganu,5.3302,103.1408,75.15,94,20,3.44,MY,2023-02-08 23:02:48
292,gbadolite,4.2833,21.0167,74.93,23,7,3.04,CD,2023-02-08 23:02:49
293,hobe sound,27.0595,-80.1364,73.99,59,40,11.5,US,2023-02-08 23:02:49
294,christchurch,-43.5333,172.6333,64.6,52,75,4.61,NZ,2023-02-08 22:59:50
295,rocha,-34.4833,-54.3333,72.81,71,81,9.55,UY,2023-02-08 23:01:14
296,natalinsk,56.4739,57.8698,13.48,93,100,8.52,RU,2023-02-08 23:02:50
297,sri aman,1.2376,111.4621,73.45,100,100,0.0,MY,2023-02-08 22:58:21
298,nuuk,64.1835,-51.7216,25.88,73,100,18.01,GL,2023-02-08 23:00:33
299,port pirie,-33.1833,138.0167,85.93,21,2,2.35,AU,2023-02-08 23:02:50
300,zychlin,52.244,19.6261,24.31,90,12,7.36,PL,2023-02-08 23:02:50
301,hobyo,5.3505,48.5268,75.7,87,3,12.28,SO,2023-02-08 23:02:51
302,samarai,-10.6167,150.6667,79.41,88,100,13.35,PG,2023-02-08 23:02:51
303,richards bay,-28.783,32.0377,71.91,94,98,12.5,ZA,2023-02-08 23:00:53
304,urumqi,43.801,87.6005,13.15,92,100,4.47,CN,2023-02-08 23:02:51
305,pavilosta,56.8879,21.1859,35.51,84,84,19.3,LV,2023-02-08 23:02:52
306,calvinia,-31.4707,19.776,71.08,50,23,8.48,ZA,2023-02-08 23:02:52
307,pachora,20.6667,75.35,68.2,23,48,5.14,IN,2023-02-08 23:02:53
308,sturgeon falls,46.3646,-79.9326,35.56,90,81,7.65,CA,2023-02-08 23:02:53
309,arlit,18.7369,7.3853,75.83,14,2,8.63,NE,2023-02-08 23:02:53
310,nelson bay,-32.7167,152.15,78.1,70,28,10.0,AU,2023-02-08 23:02:54
311,santa cruz,-17.8,-63.1667,87.85,58,75,12.66,BO,2023-02-08 23:02:17
312,ishigaki,24.3448,124.1572,71.73,88,100,8.05,JP,2023-02-08 23:02:54
313,waalwijk,51.6897,5.0172,36.03,67,100,3.44,NL,2023-02-08 23:02:54
314,sindou,10.6667,-5.1667,83.82,39,76,1.59,BF,2023-02-08 23:02:55
315,aguililla,18.7333,-102.7333,83.68,29,8,1.66,MX,2023-02-08 23:02:55
316,san juan,-31.5375,-68.5364,94.15,23,0,8.19,AR,2023-02-08 23:01:33
317,huambo,-12.7761,15.7392,58.77,69,71,1.95,AO,2023-02-08 23:02:56
318,ubinskoye,55.3068,79.6802,-18.42,100,100,2.35,RU,2023-02-08 23:02:56
319,ilulissat,69.2167,-51.1,-3.98,54,0,9.22,GL,2023-02-08 23:02:56
320,eureka,40.8021,-124.1637,59.74,76,68,3.0,US,2023-02-08 23:01:42
321,dikson,73.5069,80.5464,2.82,79,100,13.27,RU,2023-02-08 23:02:57
322,ozinki,51.1786,49.6769,6.03,95,49,7.07,RU,2023-02-08 23:02:57
323,bay city,43.5945,-83.8889,41.0,74,0,4.61,US,2023-02-08 23:02:58
324,san pedro,14.35,121.0167,76.23,83,40,2.3,PH,2023-02-08 22:59:36
325,ngaoundere,7.3167,13.5833,68.43,20,9,4.23,CM,2023-02-08 23:02:58
326,sisimiut,66.9395,-53.6735,-1.35,78,93,8.01,GL,2023-02-08 23:02:58
327,kautokeino,69.0125,23.0412,31.5,81,100,35.19,NO,2023-02-08 23:02:59
328,lebu,-37.6167,-73.65,62.44,85,2,10.83,CL,2023-02-08 23:02:59
329,baiyin,36.5583,104.2081,16.36,91,8,3.24,CN,2023-02-08 23:02:59
330,awjilah,29.1081,21.2869,52.68,44,95,12.37,LY,2023-02-08 23:03:00
331,korla,41.7597,86.1469,28.92,68,42,3.11,CN,2023-02-08 23:03:00
332,taunggyi,20.7833,97.0333,45.07,48,12,1.12,MM,2023-02-08 23:03:00
333,narasannapeta,18.4167,84.05,67.68,90,66,5.3,IN,2023-02-08 23:03:01
334,emba,48.8264,58.1442,-6.83,94,5,5.66,KZ,2023-02-08 23:03:01
335,dutlwe,-23.9833,23.9,69.1,77,89,6.69,BW,2023-02-08 23:03:02
336,lorengau,-2.0226,147.2712,79.88,80,100,10.51,PG,2023-02-08 23:03:02
337,saint-joseph,-21.3667,55.6167,73.78,82,74,11.07,RE,2023-02-08 23:03:03
338,yaan,7.3833,8.5667,83.84,15,80,3.62,NG,2023-02-08 23:03:04
339,prescott,34.54,-112.4685,56.03,27,21,5.99,US,2023-02-08 23:00:00
340,chateaubelair,13.2833,-61.25,77.52,78,40,13.8,VC,2023-02-08 23:03:05
341,mount gambier,-37.8333,140.7667,67.33,52,5,4.83,AU,2023-02-08 23:03:06
342,devils lake,48.1128,-98.8651,35.94,81,0,3.44,US,2023-02-08 23:03:06
343,salinopolis,-0.6136,-47.3561,78.48,84,85,9.31,BR,2023-02-08 23:03:07
344,camacha,33.0833,-16.3333,54.82,72,40,11.5,PT,2023-02-08 23:03:07
345,klaksvik,62.2266,-6.589,36.52,66,94,36.24,FO,2023-02-08 23:03:09
346,acucena,-19.0731,-42.5464,73.92,96,98,1.77,BR,2023-02-08 23:01:41
347,paragominas,-2.9667,-47.4833,72.7,98,97,3.87,BR,2023-02-08 23:02:27
348,touros,-5.1989,-35.4608,79.88,78,51,14.07,BR,2023-02-08 23:03:11
349,nola,40.922,14.5329,44.92,65,22,8.01,IT,2023-02-08 23:03:11
350,padang,-0.9492,100.3543,73.45,85,97,4.5,ID,2023-02-08 23:00:39
351,tutoia,-2.7619,-42.2744,78.46,86,72,9.08,BR,2023-02-08 23:03:12
352,mahon,39.8885,4.2658,48.76,66,40,6.91,ES,2023-02-08 23:03:13
353,souillac,-20.5167,57.5167,79.18,83,75,8.05,MU,2023-02-08 23:03:14
354,hualmay,-11.0964,-77.6139,75.58,75,63,11.21,PE,2023-02-08 23:03:14
355,port lincoln,-34.7333,135.8667,71.74,63,0,12.3,AU,2023-02-08 23:03:15
356,lavrentiya,65.5833,-171.0,-10.14,89,100,2.39,RU,2023-02-08 23:03:16
357,ust-maya,60.4167,134.5333,-39.69,100,100,1.72,RU,2023-02-08 23:03:17
358,bilibino,68.0546,166.4372,-45.06,99,80,1.95,RU,2023-02-08 23:03:18
359,yushan,31.3776,120.9543,48.97,78,100,11.86,CN,2023-02-08 23:03:19
360,sibu,2.3,111.8167,73.71,94,40,2.3,MY,2023-02-08 23:03:20
361,jalu,29.0331,21.5482,52.57,45,98,12.19,LY,2023-02-08 23:03:20
362,salalah,17.0151,54.0924,69.89,78,0,3.44,OM,2023-02-08 23:03:11
363,wajir,1.7471,40.0573,77.92,66,7,14.72,KE,2023-02-08 23:02:22
364,porto santo,33.072,-16.3415,57.58,72,40,11.5,PT,2023-02-08 23:03:22
365,nalut,30.3333,10.85,51.48,77,72,12.71,LY,2023-02-08 23:03:23
366,saint-michel-des-saints,46.6834,-73.9159,12.76,96,65,2.71,CA,2023-02-08 23:03:24
367,oxford,51.7522,-1.256,38.3,92,75,5.75,GB,2023-02-08 23:00:28
368,pangnirtung,66.1451,-65.7125,-14.8,53,0,2.3,CA,2023-02-08 23:03:24
369,buala,-8.145,159.5921,82.0,79,96,7.52,SB,2023-02-08 23:03:26
370,burnie,-41.0667,145.9167,62.94,77,91,13.09,AU,2023-02-08 23:03:27
371,coahuayana,18.7333,-103.6833,83.28,57,1,6.02,MX,2023-02-08 23:03:28
372,san lawrenz,36.0553,14.204,49.41,76,100,15.84,MT,2023-02-08 23:03:29
373,shkurinskaya,46.5858,39.3599,19.8,86,10,11.74,RU,2023-02-08 23:03:29
374,kogon,39.7228,64.5517,44.64,61,20,9.22,UZ,2023-02-08 23:03:30
375,lakatoro,-16.0999,167.4164,82.27,76,96,9.8,VU,2023-02-08 23:03:31
376,kotelnich,58.3089,48.348,12.58,99,96,2.68,RU,2023-02-08 23:03:32
377,fare,-16.7,-151.0167,80.83,73,3,9.48,PF,2023-02-08 23:03:33
378,kembe,4.6228,21.8865,69.78,23,7,3.24,CF,2023-02-08 23:03:34
379,jobabo,20.9692,-76.2994,78.82,73,0,18.66,CU,2023-02-08 23:03:35
380,carman,49.4992,-98.0016,28.74,80,100,6.91,CA,2023-02-08 23:03:36
381,ponta do sol,32.6667,-17.1,59.72,67,36,7.05,PT,2023-02-08 23:03:36
382,ugoofaaru,5.6667,73.0,79.81,70,85,1.41,MV,2023-02-08 23:03:36
383,nantong,32.0303,120.8747,46.99,99,100,1.01,CN,2023-02-08 23:03:37
384,nantucket,41.2835,-70.0995,38.14,75,0,6.91,US,2023-02-08 23:01:32
385,selty,57.3132,52.1345,11.43,99,100,3.36,RU,2023-02-08 23:03:37
386,dingle,10.9995,122.6711,73.69,90,100,8.01,PH,2023-02-08 23:03:37
387,majene,-3.5403,118.9707,79.45,74,100,6.82,ID,2023-02-08 23:03:38
388,nguruka,-5.1092,31.0419,65.5,92,100,2.06,TZ,2023-02-08 23:03:38
389,luanda,-8.8368,13.2343,78.8,78,0,6.91,AO,2023-02-08 23:03:39
390,khatanga,71.9667,102.5,-45.04,100,60,4.23,RU,2023-02-08 23:03:39
391,laela,-8.5667,32.05,58.41,93,95,3.24,TZ,2023-02-08 23:03:39
392,grand-lahou,5.1367,-5.0242,78.55,88,39,4.5,CI,2023-02-08 23:03:40
393,kumylzhenskaya,49.8809,42.5898,0.99,97,42,3.65,RU,2023-02-08 23:03:40
394,lishui,28.4604,119.9103,49.66,97,100,2.75,CN,2023-02-08 23:03:40
395,guarapari,-20.6667,-40.4975,78.89,96,100,5.01,BR,2023-02-08 23:03:41
396,concepcion del uruguay,-32.4825,-58.2372,90.34,21,100,7.7,AR,2023-02-08 22:58:43
397,aguimes,27.9054,-15.4461,59.67,88,75,0.0,ES,2023-02-08 23:03:41
398,zhigansk,66.7697,123.3711,-44.34,98,100,8.19,RU,2023-02-08 23:03:42
399,kodiak,57.79,-152.4072,29.71,43,0,3.44,US,2023-02-08 23:03:42
400,natal,-5.795,-35.2094,81.25,74,20,13.8,BR,2023-02-08 23:03:42
401,tabou,4.423,-7.3528,78.85,86,91,4.03,CI,2023-02-08 23:03:43
402,novoshcherbinovskaya,46.4767,38.6476,19.83,86,7,12.66,RU,2023-02-08 23:03:43
403,aransas pass,27.9095,-97.15,62.69,100,0,16.11,US,2023-02-08 23:03:44
404,ylivieska,64.0833,24.55,38.32,83,100,18.25,FI,2023-02-08 23:03:44
405,binga,-17.6203,27.3414,71.87,82,8,2.95,ZW,2023-02-08 23:03:44
406,staryy nadym,65.6118,72.6842,9.5,96,96,15.19,RU,2023-02-08 23:03:45
407,kathu,7.9178,98.3332,76.82,80,98,11.65,TH,2023-02-08 23:03:45
408,hirara,24.8,125.2833,68.27,88,75,8.05,JP,2023-02-08 23:03:45
409,nabire,-3.3667,135.4833,75.36,89,100,3.22,ID,2023-02-08 23:03:46
410,college,64.8569,-147.8028,7.59,86,100,0.0,US,2023-02-08 23:00:01
411,bubaque,11.2833,-15.8333,74.82,71,5,15.75,GW,2023-02-08 23:03:46
412,zheleznodorozhnyy,55.7503,38.0042,27.12,97,99,4.72,RU,2023-02-08 23:03:46
413,sumbe,-11.2061,13.8437,75.07,82,43,7.45,AO,2023-02-08 23:03:47
414,oneonta,42.4529,-75.0638,37.72,74,50,3.56,US,2023-02-08 23:02:11
415,wanning,18.8003,110.3967,71.92,88,30,3.42,CN,2023-02-08 23:03:47
416,labuhan,-6.8844,112.2051,76.73,89,100,6.53,ID,2023-02-08 23:03:47
417,mandan,46.8267,-100.8896,41.81,68,0,8.05,US,2023-02-08 23:03:48
418,aginskoye,51.1,114.53,-12.21,100,99,0.94,RU,2023-02-08 23:03:48
419,kimbe,-5.5502,150.1429,75.99,97,100,3.8,PG,2023-02-08 23:03:48
420,whitehorse,60.7161,-135.0538,30.09,69,20,18.41,CA,2023-02-08 23:03:48
421,fort nelson,58.8053,-122.7002,15.39,67,20,0.0,CA,2023-02-08 23:00:15
422,cruces,22.3411,-80.2667,79.92,68,53,16.67,CU,2023-02-08 23:03:49
423,taraz,42.9,71.3667,30.61,100,100,4.47,KZ,2023-02-08 23:03:49
424,taiyuan,37.8694,112.5603,28.26,86,20,4.47,CN,2023-02-08 23:03:50
425,mao,39.8885,4.2658,48.76,66,40,6.91,ES,2023-02-08 23:03:50
426,saint-georges,12.0564,-61.7485,74.88,94,75,13.8,GD,2023-02-08 22:59:52
427,channel-port aux basques,47.5702,-59.1367,28.87,88,99,18.43,CA,2023-02-08 22:59:46
428,gondanglegi,-7.7479,112.0132,74.62,91,100,0.6,ID,2023-02-08 23:03:50
429,wagar,16.1525,36.2032,64.02,68,12,19.33,SD,2023-02-08 23:03:50
430,malinovskiy,61.1953,62.8397,15.13,91,17,8.55,RU,2023-02-08 23:03:51
431,praia da vitoria,38.7333,-27.0667,53.85,94,40,12.77,PT,2023-02-08 23:03:51
432,huarmey,-10.0681,-78.1522,75.29,78,33,9.01,PE,2023-02-08 23:03:51
433,enterprise,36.0252,-115.2419,64.29,23,20,5.75,US,2023-02-08 22:59:11
434,angoche,-16.2325,39.9086,75.47,92,100,7.54,MZ,2023-02-08 23:03:52
435,bato,13.3528,123.3677,71.73,89,99,4.18,PH,2023-02-08 23:03:53
436,salinas,36.6777,-121.6555,70.99,60,0,5.75,US,2023-02-08 23:00:11
437,sur,22.5667,59.5289,75.43,49,5,7.94,OM,2023-02-08 23:03:53
438,portland,45.5234,-122.6762,53.82,67,75,5.99,US,2023-02-08 23:03:06
439,yeppoon,-23.1333,150.7333,78.58,66,72,22.86,AU,2023-02-08 23:03:53
440,niquero,20.0431,-77.5828,78.73,72,8,5.88,CU,2023-02-08 23:03:54
441,vila franca do campo,37.7167,-25.4333,55.81,69,86,9.78,PT,2023-02-08 23:03:54
442,camopi,3.1655,-52.3158,72.88,99,88,2.86,GF,2023-02-08 23:03:54
443,mikhaylovka,50.06,43.2379,9.7,98,33,4.03,RU,2023-02-08 23:03:55
444,olga,43.7444,135.2892,7.43,77,4,4.9,RU,2023-02-08 23:03:55
445,north bend,43.4065,-124.2243,53.17,76,100,4.61,US,2023-02-08 23:03:55
446,tibu,8.639,-72.7358,82.65,63,51,1.41,CO,2023-02-08 23:03:56
447,baykit,61.67,96.37,1.47,99,100,0.38,RU,2023-02-08 23:03:56
448,vestmannaeyjar,63.4427,-20.2734,30.22,57,100,35.23,IS,2023-02-08 23:03:17
449,itaituba,-4.2761,-55.9836,75.0,95,77,1.45,BR,2023-02-08 23:03:54
450,xuddur,4.1213,43.8894,71.11,67,17,14.99,SO,2023-02-08 23:03:57
451,empalme,27.9667,-110.8167,81.91,15,0,18.25,MX,2023-02-08 23:00:29
452,wilmington,34.2257,-77.9447,64.92,68,93,1.99,US,2023-02-08 23:00:04
453,karatsu,33.4425,129.9697,40.89,67,99,10.54,JP,2023-02-08 23:03:57
454,high rock,26.6208,-78.2833,71.62,62,67,16.31,BS,2023-02-08 23:03:57
455,nemuro,43.3236,145.575,20.46,77,50,14.58,JP,2023-02-08 23:03:58
456,guerrero negro,27.9769,-114.0611,68.94,22,0,10.89,MX,2023-02-08 23:03:58
457,goderich,43.7501,-81.7165,39.52,70,84,9.22,CA,2023-02-08 23:03:58
458,kjollefjord,70.9457,27.3465,41.05,65,20,43.73,NO,2023-02-08 23:03:59
459,erice,38.037,12.5865,39.67,75,100,9.75,IT,2023-02-08 23:03:59
460,prieska,-29.6641,22.7474,68.52,64,1,11.43,ZA,2023-02-08 23:03:59
461,makat,47.6469,53.3463,7.38,89,5,7.78,KZ,2023-02-08 23:04:00
462,muisne,0.6,-80.0333,79.93,79,16,7.25,EC,2023-02-08 23:04:00
463,pontes e lacerda,-15.2261,-59.3353,76.91,86,95,1.81,BR,2023-02-08 23:04:00
464,middelburg,-25.7751,29.4648,62.02,88,68,3.83,ZA,2023-02-08 23:02:26
465,owando,-0.4819,15.8999,75.61,52,6,3.78,CG,2023-02-08 23:04:01
466,farafenni,13.5667,-15.6,83.19,15,8,7.02,GM,2023-02-08 23:04:01
467,kruisfontein,-34.0033,24.7314,63.52,81,100,3.87,ZA,2023-02-08 23:04:02
468,leningradskiy,69.3833,178.4167,-22.76,95,100,4.68,RU,2023-02-08 23:04:02
469,khandyga,62.6667,135.6,-52.78,100,94,1.97,RU,2023-02-08 23:04:03
470,atambua,-9.1061,124.8925,74.53,91,99,1.88,ID,2023-02-08 23:04:04
471,wattegama,6.7989,81.4808,70.18,87,100,4.18,LK,2023-02-08 23:04:05
472,sheridan,44.8333,-106.9173,36.01,56,100,14.97,US,2023-02-08 23:04:06
473,avera,33.194,-82.5271,71.65,75,100,5.73,US,2023-02-08 23:04:06
474,luderitz,-26.6481,15.1594,62.8,97,17,13.2,NA,2023-02-08 22:59:40
475,marathon,44.9,-89.7668,45.64,59,0,5.75,US,2023-02-08 23:04:07
476,bonoua,5.2741,-3.595,80.22,86,89,3.31,CI,2023-02-08 23:01:38
477,lamu,-2.2717,40.902,79.02,87,11,11.59,KE,2023-02-08 23:04:09
478,huicungo,-7.2833,-76.8,81.1,66,56,1.23,PE,2023-02-08 23:04:10
479,baglung,28.2719,83.5898,49.1,55,22,5.17,NP,2023-02-08 23:04:11
480,villa carlos paz,-31.4241,-64.4978,78.08,70,35,1.01,AR,2023-02-08 23:04:12
481,sladkovo,55.5284,70.3385,-10.71,100,100,8.5,RU,2023-02-08 23:04:12
482,metro,-5.1131,105.3067,72.84,89,94,3.33,ID,2023-02-08 23:03:50
483,altamira,-3.2033,-52.2064,72.77,99,100,2.75,BR,2023-02-08 23:04:15
484,kargasok,59.0556,80.8572,-16.08,99,77,5.12,RU,2023-02-08 23:04:16
485,hofn,64.2539,-15.2082,25.07,64,55,13.0,IS,2023-02-08 23:03:17
486,mitu,1.1983,-70.1733,74.16,95,60,2.98,CO,2023-02-08 23:04:16
487,slave lake,55.2834,-114.769,33.78,60,0,2.3,CA,2023-02-08 23:04:17
488,muroto,33.2833,134.15,47.1,73,51,17.16,JP,2023-02-08 23:04:18
489,placido de castro,-10.3353,-67.1856,77.31,87,62,2.3,BR,2023-02-08 23:01:40
490,tateyama,34.9833,139.8667,43.11,52,84,17.9,JP,2023-02-08 23:04:20
491,ituiutaba,-18.9689,-49.465,71.82,89,68,3.22,BR,2023-02-08 23:04:20
492,paracuru,-3.41,-39.0306,81.1,76,93,10.6,BR,2023-02-08 23:04:21
493,kamenka,51.3223,42.7678,5.18,98,79,5.7,RU,2023-02-08 23:04:22
494,mangrol,21.1167,70.1167,70.14,36,54,7.7,IN,2023-02-08 23:04:22
495,bose,45.4612,8.0137,31.59,60,78,3.4,IT,2023-02-08 23:04:23
496,khandbari,27.3747,87.2039,51.55,74,48,2.3,NP,2023-02-08 23:04:24
497,torbay,47.6666,-52.7314,31.57,96,100,24.16,CA,2023-02-08 23:04:24
498,chumikan,54.7183,135.315,-25.46,89,47,15.1,RU,2023-02-08 23:04:25
499,bursa,40.1667,29.0833,26.64,96,77,2.35,TR,2023-02-08 23:01:16
500,vila velha,-20.3297,-40.2925,78.94,82,20,11.5,BR,2023-02-08 23:04:25
501,beloha,-25.1667,45.05,75.87,78,100,4.97,MG,2023-02-08 23:04:26
502,wuxi,31.5689,120.2886,45.99,79,100,14.16,CN,2023-02-08 23:04:27
503,nyaunglebin,17.95,96.7333,59.0,37,7,4.56,MM,2023-02-08 23:04:27
504,motygino,58.1831,94.7592,-0.81,99,98,3.04,RU,2023-02-08 23:04:28
505,fandriana,-20.2333,47.3833,61.23,96,100,2.04,MG,2023-02-08 23:04:29
506,tabuk,17.4189,121.4443,67.82,90,96,2.73,PH,2023-02-08 23:04:29
507,nampula,-15.1165,39.2666,70.29,97,100,3.85,MZ,2023-02-08 23:00:24
508,berlevag,70.8578,29.0864,39.2,65,20,40.29,NO,2023-02-08 23:03:15
509,perry,37.2506,-83.1999,59.72,82,97,4.63,US,2023-02-08 23:04:30
510,katsuura,35.1333,140.3,42.82,55,61,15.39,JP,2023-02-08 23:04:31
511,voznesenskoye,54.89,42.7569,18.99,96,100,4.54,RU,2023-02-08 23:04:32
512,edeia,-17.3383,-49.9314,74.28,81,83,3.2,BR,2023-02-08 23:04:33
513,awbari,26.5921,12.7805,58.8,25,29,21.47,LY,2023-02-08 23:04:33
514,kieta,-6.2167,155.6333,83.46,75,100,6.51,PG,2023-02-08 23:04:35
515,manokwari,-0.8667,134.0833,76.95,86,100,11.32,ID,2023-02-08 23:04:35
516,husavik,66.0449,-17.3389,22.19,71,99,13.69,IS,2023-02-08 23:04:36
517,isla mujeres,21.2311,-86.731,80.65,83,5,17.0,MX,2023-02-08 23:04:36
518,bereda,43.2686,-7.5406,33.15,100,20,3.31,ES,2023-02-08 23:04:36
519,gazojak,41.1875,61.4036,32.07,63,100,19.13,TM,2023-02-08 23:04:37
520,imbituba,-28.24,-48.6703,75.61,86,49,10.13,BR,2023-02-08 23:04:38
521,peniche,39.3558,-9.3811,51.93,86,83,21.36,PT,2023-02-08 23:04:38
522,barra patuca,15.8,-84.2833,78.31,77,0,11.5,HN,2023-02-08 23:04:39
523,tura,25.5198,90.2201,57.87,63,1,3.27,IN,2023-02-08 23:04:39
524,beringovskiy,63.05,179.3167,-24.9,94,27,5.55,RU,2023-02-08 23:04:39
525,elliot lake,46.3834,-82.6331,30.99,94,86,4.45,CA,2023-02-08 23:01:36
526,aljezur,37.3191,-8.8033,49.06,89,4,8.32,PT,2023-02-08 23:04:40
527,freeport,40.6576,-73.5832,52.38,51,0,9.22,US,2023-02-08 23:02:43
528,marevo,57.3146,32.0804,29.52,96,100,6.67,RU,2023-02-08 23:04:40
529,turayf,31.6725,38.6637,37.65,81,40,11.5,SA,2023-02-08 23:04:41
530,saint-francois,46.4154,3.9054,32.95,94,1,0.0,FR,2023-02-08 23:04:41
531,sechura,-5.5569,-80.8222,81.57,61,42,17.87,PE,2023-02-08 23:04:42
532,chapais,49.7834,-74.8492,8.38,98,100,3.0,CA,2023-02-08 23:03:15
533,khasan,42.4308,130.6434,17.89,72,0,5.53,RU,2023-02-08 23:04:42
534,ambositra,-20.5167,47.25,61.23,98,100,2.89,MG,2023-02-08 23:04:42
535,komsomolskiy,40.4272,71.7189,36.32,87,100,4.61,UZ,2023-02-08 23:04:43
536,maceio,-9.6658,-35.7353,78.24,83,75,2.3,BR,2023-02-08 23:04:43
537,safaga,26.7292,33.9365,58.87,57,100,15.21,EG,2023-02-08 23:04:43
538,hongjiang,27.11,109.9956,48.78,97,100,2.98,CN,2023-02-08 23:04:44
539,tukrah,32.5341,20.5791,52.75,74,99,27.18,LY,2023-02-08 23:04:44
540,nome,64.5011,-165.4064,0.16,78,100,4.61,US,2023-02-08 23:04:19
541,teguldet,57.3064,88.1667,0.91,98,100,3.2,RU,2023-02-08 23:04:45
542,marzuq,14.4,46.4667,63.36,37,25,4.5,YE,2023-02-08 23:04:45
543,presidente medici,-11.1753,-61.9014,75.22,90,57,0.69,BR,2023-02-08 23:04:45
544,maragogi,-9.0122,-35.2225,78.44,76,99,7.2,BR,2023-02-08 23:04:46
545,el fuerte,26.4189,-108.6194,83.59,6,0,10.63,MX,2023-02-08 23:04:46
546,nagtipunan,16.2167,121.6,66.06,97,99,1.34,PH,2023-02-08 23:04:46
547,najran,17.4924,44.1277,65.05,35,38,3.42,SA,2023-02-08 23:04:34
548,codrington,-38.2667,141.9667,66.34,66,3,6.58,AU,2023-02-08 23:04:47
549,brae,60.3964,-1.353,40.17,69,87,31.52,GB,2023-02-08 23:04:47
550,megali panayia,40.45,23.6833,27.25,59,43,3.58,GR,2023-02-08 23:04:47
551,coquimbo,-29.9533,-71.3436,65.93,77,0,9.22,CL,2023-02-08 23:04:48
552,non thai,15.1981,102.0358,83.48,59,52,1.05,TH,2023-02-08 23:04:48
553,hamilton,39.1834,-84.5333,54.41,60,100,10.36,US,2023-02-08 23:02:29
554,aromashevo,56.8602,68.6375,5.07,95,100,10.2,RU,2023-02-08 23:04:48
555,port hardy,50.6996,-127.4199,41.18,87,100,17.27,CA,2023-02-08 23:00:34
556,weatherford,32.7593,-97.7972,47.25,84,92,5.01,US,2023-02-08 23:01:32
557,la palma,33.8464,-118.0467,79.5,41,0,9.22,US,2023-02-08 23:04:49
558,cardston,49.2,-113.3019,34.09,74,90,4.61,CA,2023-02-08 23:04:49
559,jacksonville,30.3322,-81.6556,72.41,68,40,11.5,US,2023-02-08 23:02:39
560,lahaina,20.8783,-156.6825,79.84,67,13,19.84,US,2023-02-08 23:04:50
561,kupang,-10.1667,123.5833,79.38,94,20,5.75,ID,2023-02-08 23:04:50
562,kolyubakino,55.668,36.5323,26.78,94,100,5.59,RU,2023-02-08 23:04:50
563,langsa,4.4683,97.9683,71.64,94,91,1.9,ID,2023-02-08 23:04:51
564,groningen,53.25,6.75,34.16,65,67,5.75,NL,2023-02-08 23:01:36
565,tamiahua,21.2667,-97.45,76.6,79,28,12.71,MX,2023-02-08 23:04:51
566,comodoro rivadavia,-45.8667,-67.5,93.06,17,0,12.66,AR,2023-02-08 23:04:51
567,atherton,53.5237,-2.4935,42.46,81,100,5.97,GB,2023-02-08 23:04:52
568,vokhtoga,58.8147,41.0461,8.01,100,93,2.86,RU,2023-02-08 23:04:52
569,isabela,6.7085,121.9711,75.25,83,100,3.53,PH,2023-02-08 23:04:52
570,saint george,37.1041,-113.5841,62.44,30,0,1.01,US,2023-02-08 23:04:53
571,kamaishi,39.2667,141.8833,31.6,57,33,11.86,JP,2023-02-08 23:04:53
572,sharjah,25.3573,55.4033,71.58,64,0,9.22,AE,2023-02-08 23:04:54
573,iquique,-20.2208,-70.1431,75.24,77,32,4.63,CL,2023-02-08 23:03:44
574,sobolevo,54.4299,31.8996,20.82,96,100,6.22,RU,2023-02-08 23:04:54
575,urucara,-2.5364,-57.76,75.79,93,39,0.78,BR,2023-02-08 23:04:54
